{"type":"FeatureCollection","crs":{"type":"name","properties":{"name":"urn:ogc:def:crs:OGC:1.3:CRS84"}},"features":[{"type":"Feature","geometry":{"type":"Point","coordinates":[-2.317373,51.406045]},"properties":{"phone":{"phone_number":"01225 858128"},"name":"Batheaston Medical Centre       ","postcode":"BA1 7NP"}},{"type":"Feature","geometry":{"type":"Point","coordinates":[-2.345585,51.361016]},"properties":{"phone":{"phone_number":"01225 832226"},"name":"Combe Down Surgery                 ","postcode":"BA2 5EG"}},{"type":"Feature","geometry":{"type":"Point","coordinates":[-2.352597,51.394984]},"properties":{"phone":{"phone_number":"01225 331616"},"name":"Fairfield Park Health Centre   ","postcode":"BA1 6EA"}},{"type":"Feature","geometry":{"type":"Point","coordinates":[-2.344532,51.394756]},"properties":{"phone":{"phone_number":"01225 484748"},"name":"Grosvenor Medical Centre ","postcode":"BA1 6BA"}},{"type":"Feature","geometry":{"type":"Point","coordinates":[-2.394,51.387632]},"properties":{"phone":{"phone_number":"01225 425807"},"name":"Newbridge Surgery ","postcode":"BA1 3PT"}},{"type":"Feature","geometry":{"type":"Point","coordinates":[-2.370855,51.375928]},"properties":{"phone":{"phone_number":"01225 427402"},"name":"No 18 Upper Oldfield Surgery ","postcode":"BA2 3JZ"}},{"type":"Feature","geometry":{"type":"Point","coordinates":[-2.373933,51.376368]},"properties":{"phone":{"phone_number":"01225 421137"},"name":"Oldfield Surgery ","postcode":"BA2 3HT"}},{"type":"Feature","geometry":{"type":"Point","coordinates":[-2.352551,51.385341]},"properties":{"phone":{"phone_number":"01225 464567"},"name":"Pulteney Street Surgery","postcode":"BA2 4BY"}},{"type":"Feature","geometry":{"type":"Point","coordinates":[-2.367724,51.38323]},"properties":{"phone":{"phone_number":"01225 334618"},"name":"Monmouth Surgery ","postcode":"BA1 2AU"}},{"type":"Feature","geometry":{"type":"Point","coordinates":[-2.365828,51.386964]},"properties":{"phone":{"phone_number":"01225 421034"},"name":"Catherine Cottage","postcode":"BA1 2PS"}},{"type":"Feature","geometry":{"type":"Point","coordinates":[-2.366868,51.389374]},"properties":{"phone":{"phone_number":"01225 422911"},"name":"St James Surgery","postcode":"BA1 2SR"}},{"type":"Feature","geometry":{"type":"Point","coordinates":[-2.399469,51.381858]},"properties":{"phone":{"phone_number":"01225 428277"},"name":"St. Michael","postcode":"BA2 1ER"}},{"type":"Feature","geometry":{"type":"Point","coordinates":[-2.393722,51.365243]},"properties":{"phone":{"phone_number":"01225 428277"},"name":"Rush Hill Surgery   ","postcode":"BA2 2QH"}},{"type":"Feature","geometry":{"type":"Point","coordinates":[-2.388619,51.390284]},"properties":{"phone":{"phone_number":"01225 446089"},"name":"Weston Surgery (Subsidary of Rush Hill)","postcode":"BA1 3NR"}},{"type":"Feature","geometry":{"type":"Point","coordinates":[-2.354322,51.376384]},"properties":{"phone":{"phone_number":"01225 310883"},"name":"Widcombe Surgery ","postcode":"BA2 4JT"}},{"type":"Feature","geometry":{"type":"Point","coordinates":[-2.330673,51.380445]},"properties":{"phone":{"phone_number":"01225 386655"},"name":"Bath University Medical Centre","postcode":"BA2 7AY"}},{"type":"Feature","geometry":{"type":"Point","coordinates":[-2.628825,51.356358]},"properties":{"phone":{"phone_number":"01275 332420"},"name":"Chew Medical Centre ","postcode":"BS40 8UE"}},{"type":"Feature","geometry":{"type":"Point","coordinates":[-2.632183,51.310329]},"properties":{"phone":{"phone_number":"01761 221406"},"name":"Harptree Surgery","postcode":"BS40 6HF"}},{"type":"Feature","geometry":{"type":"Point","coordinates":[-2.542392,51.316921]},"properties":{"phone":{"phone_number":"01761 452205"},"name":"Cameley Surgery ","postcode":"BS39 5BW"}},{"type":"Feature","geometry":{"type":"Point","coordinates":[-2.496924,51.418055]},"properties":{"phone":{"phone_number":"0117 986 2343"},"name":"St. Augustine","postcode":"BS31 2BN"}},{"type":"Feature","geometry":{"type":"Point","coordinates":[-2.456296,51.401801]},"properties":{"phone":{"phone_number":"01225 873245"},"name":"Saltford Surgery  (Branch of St Augustine","postcode":"BS31 3HQ"}},{"type":"Feature","geometry":{"type":"Point","coordinates":[-2.498186,51.4098]},"properties":{"phone":{"phone_number":"0117 9862139"},"name":"Temple House Surgery ","postcode":"BS31 1AF"}},{"type":"Feature","geometry":{"type":"Point","coordinates":[-2.502106,51.411936]},"properties":{"phone":{"phone_number":"0117 9376835"},"name":"West View Surgery ","postcode":"BS31 1BX"}},{"type":"Feature","geometry":{"type":"Point","coordinates":[-2.490497,51.41007]},"properties":{"phone":{"phone_number":"0117 9376835"},"name":"Severn Way Surgery (Branch of West View)","postcode":"BS31 1NU"}},{"type":"Feature","geometry":{"type":"Point","coordinates":[-2.492742,51.30055]},"properties":{"phone":{"phone_number":"01761 413155"},"name":"Elm Hayes Surgery ","postcode":"BS39 7SF"}},{"type":"Feature","geometry":{"type":"Point","coordinates":[-2.429987,51.311138]},"properties":{"phone":{"phone_number":"01761 434469"},"name":"Hillcrest Surgery","postcode":"BA2 8JS"}},{"type":"Feature","geometry":{"type":"Point","coordinates":[-2.44779,51.291838]},"properties":{"phone":{"phone_number":"01761 432121"},"name":"Hope House Surgery ","postcode":"BA3 3PL"}},{"type":"Feature","geometry":{"type":"Point","coordinates":[-2.476846,51.287835]},"properties":{"phone":{"phone_number":"01761 413334"},"name":"St Chad","postcode":"BA3 2UH"}},{"type":"Feature","geometry":{"type":"Point","coordinates":[-2.48386,51.288008]},"properties":{"phone":{"phone_number":"01761 412141"},"name":"Somerton House Surgery ","postcode":"BA3 2QE"}},{"type":"Feature","geometry":{"type":"Point","coordinates":[-2.479869,51.326082]},"properties":{"phone":{"phone_number":"01761 470880"},"name":"St Marys Surgery ","postcode":"BA2 0HX"}},{"type":"Feature","geometry":{"type":"Point","coordinates":[-2.458979,51.284961]},"properties":{"phone":{"phone_number":"01761 436333"},"name":"Westfield Surgery ","postcode":"BA3 3UJ"}}]}